var pivovary = {
"type": "FeatureCollection",
"crs": { "type": "name", "properties": { "name": "urn:ogc:def:crs:OGC:1.3:CRS84" } },
"features": [
{ "type": "Feature", "properties": { "id": 1, "name": "Pivovar u medvídků", "brewer": "Ladislav Veselý", "est": 1466, "lat": 50.083, "long": 14.4187, "address": "Na Perštýně 7, 110 01", "web": "http:\/\/www.umedvidku.cz" }, "geometry": { "type": "Point", "coordinates": [ 14.4187, 50.083 ] } },
{ "type": "Feature", "properties": { "id": 2, "name": "Suchdolský Jeník", "brewer": "Ing. Ladislav Chládek,CSc.", "est": 2006, "lat": 50.13, "long": 14.3737, "address": "Kamýcká 129, 165 21", "web": "http:\/\/pivovar.tf.czu.cz\/" }, "geometry": { "type": "Point", "coordinates": [ 14.3737, 50.13 ] } },
{ "type": "Feature", "properties": { "id": 3, "name": "Klášterní pivovar Strahov", "brewer": "Jan Martinka", "est": 2001, "lat": 50.0869, "long": 14.3886, "address": "Strahovské nádvoří 302\/10, 118 00", "web": "http:\/\/www.klasterni-pivovar.cz" }, "geometry": { "type": "Point", "coordinates": [ 14.3886, 50.0869 ] } },
{ "type": "Feature", "properties": { "id": 4, "name": "Pivovar u fleků", "brewer": "Michael Adamík", "est": 1499, "lat": 50.0789, "long": 14.4166, "address": "Křemencova 11, 110 01", "web": "www.ufleku.cz" }, "geometry": { "type": "Point", "coordinates": [ 14.4166, 50.0789 ] } },
{ "type": "Feature", "properties": { "id": 5, "name": "Třebonický rukodělný pivovárek", "brewer": "David Staněk", "est": 2010, "lat": 50.0496, "long": 14.2864, "address": "K Řeporyjům 4,155 00", "web": "http:\/\/www.pivovartrebonice.com\/" }, "geometry": { "type": "Point", "coordinates": [ 14.2864, 50.0496 ] } },
{ "type": "Feature", "properties": { "id": 6, "name": "U Bulovky Richter Pub", "brewer": "František Richter", "est": 2004, "lat": 50.1153, "long": 14.4663, "address": "Bulovka 17\/373,180 00", "web": "http:\/\/www.pivovarubulovky.cz\/" }, "geometry": { "type": "Point", "coordinates": [ 14.4663, 50.1153 ] } },
{ "type": "Feature", "properties": { "id": 7, "name": "Jihoměstský pivovar", "brewer": "František Richter", "est": 2010, "lat": 50.0315, "long": 14.5197, "address": "Podjavorinské 1602\/11, 149 000", "web": "http:\/\/www.jihomestskypivovar.cz" }, "geometry": { "type": "Point", "coordinates": [ 14.5197, 50.0315 ] } },
{ "type": "Feature", "properties": { "id": 8, "name": "Pivovarský dům", "brewer": "Václav Potměšil", "est": 1998, "lat": 50.0754, "long": 14.4237, "address": "Ječná\/Lipová 15, 120 44", "web": "http:\/\/www.pivovarskydum.com\/" }, "geometry": { "type": "Point", "coordinates": [ 14.4237, 50.0754 ] } },
{ "type": "Feature", "properties": { "id": 9, "name": "Novoměstský pivovar", "brewer": "Miroslav Vrána", "est": 1992, "lat": 50.0794, "long": 14.4232, "address": "Vodičkova 20, 110 00", "web": "http:\/\/www.npivovar.cz" }, "geometry": { "type": "Point", "coordinates": [ 14.4232, 50.0794 ] } },
{ "type": "Feature", "properties": { "id": 10, "name": "Sousedský pivovar u Bansethů", "brewer": "Jan Kroužek", "est": 2007, "lat": 50.0628, "long": 14.4399, "address": "Táborská 49, 140 00", "web": "http:\/\/www.ubansethu.cz" }, "geometry": { "type": "Point", "coordinates": [ 14.4399, 50.0628 ] } },
{ "type": "Feature", "properties": { "id": 11, "name": "U dvou koček", "brewer": "Jaroslav Myška", "est": 2010, "lat": 50.0835, "long": 14.4205, "address": "Uhelný trh 415\/10, 110 00", "web": "http:\/\/www.udvoukocek.cz" }, "geometry": { "type": "Point", "coordinates": [ 14.4205, 50.0835 ] } },
{ "type": "Feature", "properties": { "id": 12, "name": "Staroměstský pivovar U tří růží", "brewer": "Robert Maňák", "est": 2012, "lat": 50.0856, "long": 14.4183, "address": "Husova 10, 110 00", "web": "http:\/\/www.u3r.cz\/" }, "geometry": { "type": "Point", "coordinates": [ 14.4183, 50.0856 ] } },
{ "type": "Feature", "properties": { "id": 13, "name": "Břevnovský klášterní pivovar Praha", "brewer": "Josef kára", "est": 993, "lat": 50.0851, "long": 14.3575, "address": "Markétská 28\/1, 169 01", "web": "http:\/\/brevnovskypivovar.cz\/" }, "geometry": { "type": "Point", "coordinates": [ 14.3575, 50.0851 ] } },
{ "type": "Feature", "properties": { "id": 14, "name": "Victor", "brewer": "josef korbel", "est": 2012, "lat": 50.0868, "long": 14.4501, "address": "Husitská 72, 130 20", "web": "http:\/\/www.pivovarvictor.cz\/" }, "geometry": { "type": "Point", "coordinates": [ 14.4501, 50.0868 ] } },
{ "type": "Feature", "properties": { "id": 15, "name": "Marina Holešovice", "brewer": "Ondřej Malátek", "est": 2012, "lat": 50.1063, "long": 14.4564, "address": "Jankovcova 12, 180 00", "web": "http:\/\/www.pivovarmarina.cz\/" }, "geometry": { "type": "Point", "coordinates": [ 14.4564, 50.1063 ] } },
{ "type": "Feature", "properties": { "id": 16, "name": "Beznoska", "brewer": "Přemek Chmelař", "est": 2013, "lat": 50.1176, "long": 14.5071, "address": "Klíčovská, 805\/11 190 00", "web": "http:\/\/www.skolicka.cz\/" }, "geometry": { "type": "Point", "coordinates": [ 14.5071, 50.1176 ] } },
{ "type": "Feature", "properties": { "id": 17, "name": "Pivovar Hostivar", "brewer": "Jan Tržil", "est": 2011, "lat": 50.0465, "long": 14.5492, "address": "Hornoměcholupská 564, 109 00", "web": "http:\/\/www.pivovar-hostivar.cz\/" }, "geometry": { "type": "Point", "coordinates": [ 14.5492, 50.0465 ] } },
{ "type": "Feature", "properties": { "id": 18, "name": "Pražský most u Valšů", "brewer": "Jindřich Chejn", "est": 2008, "lat": 50.0836, "long": 14.4147, "address": "Betlémská 5, 110 00", "web": "http:\/\/www.prazskymost.cz" }, "geometry": { "type": "Point", "coordinates": [ 14.4147, 50.0836 ] } },
{ "type": "Feature", "properties": { "id": 19, "name": "Libocký pivovar", "brewer": "David Pátek", "est": 2013, "lat": 50.0925, "long": 14.324, "address": "Evropská 134\/209, 161 00 ", "web": "http:\/\/www.nadsarkou.cz" }, "geometry": { "type": "Point", "coordinates": [ 14.324, 50.0925 ] } },
{ "type": "Feature", "properties": { "id": 20, "name": "Šedivák", "brewer": "Jiří Novák", "est": 2014, "lat": 50.1316, "long": 14.4244, "address": "Katovická 410\/6, 181 00", "web": "http:\/\/www.pivovarsedivak.cz\/" }, "geometry": { "type": "Point", "coordinates": [ 14.4244, 50.1316 ] } },
{ "type": "Feature", "properties": { "id": 21, "name": "Nad Kolčavkou", "brewer": "Ing. Martina Brožová", "est": 2014, "lat": 50.1083, "long": 14.4825, "address": "Nad Kolčavkou 907\/8, 190 00", "web": "http:\/\/www.pivovarnadkolcavkou.cz\/" }, "geometry": { "type": "Point", "coordinates": [ 14.4825, 50.1083 ] } },
{ "type": "Feature", "properties": { "id": 22, "name": "Vinohradský pivovar", "brewer": "František Richter", "est": 2014, "lat": 50.0753, "long": 14.4576, "address": "Korunní 2506\/106, 101 00", "web": "http:\/\/www.vinohradskypivovar.cz\/" }, "geometry": { "type": "Point", "coordinates": [ 14.4576, 50.0753 ] } },
{ "type": "Feature", "properties": { "id": 23, "name": "Pivovar Lužiny", "brewer": "Michal Novotný", "est": 2014, "lat": 50.0441, "long": 14.3316, "address": "Archeologická 2256\/1, 155 00", "web": "http:\/\/www.pivovar-luziny.cz\/" }, "geometry": { "type": "Point", "coordinates": [ 14.3316, 50.0441 ] } },
{ "type": "Feature", "properties": { "id": 24, "name": "U Dobřenských", "brewer": "Adam Roudnický", "est": 2015, "lat": 50.0841, "long": 14.4156, "address": "U Dobřenských 3, 110 00", "web": "http:\/\/www.pivovarudobrenskych.cz\/" }, "geometry": { "type": "Point", "coordinates": [ 14.4156, 50.0841 ] } },
{ "type": "Feature", "properties": { "id": 25, "name": "Pivovar Národná Třída", "brewer": "Jaroslav Košťák", "est": 2015, "lat": 50.0814, "long": 14.4156, "address": "Národní 8, 110 00", "web": "http:\/\/www.pivovarnarodni.cz\/" }, "geometry": { "type": "Point", "coordinates": [ 14.4156, 50.0814 ] } },
{ "type": "Feature", "properties": { "id": 26, "name": "Pivovar Kunratice", "brewer": "Patrik Godovský", "est": 2014, "lat": 50.0077, "long": 14.4801, "address": "Vídeňská 405, 148 00", "web": "http:\/\/www.pivovarkunratice.cz\/" }, "geometry": { "type": "Point", "coordinates": [ 14.4801, 50.0077 ] } },
{ "type": "Feature", "properties": { "id": 27, "name": "Nota Bene", "brewer": "Adam Roudnický", "est": 2016, "lat": 50.0764, "long": 14.4308, "address": "Mikovcova 4, 120 00", "web": "http:\/\/www.notabene-restaurant.cz\/" }, "geometry": { "type": "Point", "coordinates": [ 14.4308, 50.0764 ] } },
{ "type": "Feature", "properties": { "id": 28, "name": "Pivovar Uhříněves", "brewer": "Rudolf Lach", "est": 2015, "lat": 50.028, "long": 14.6068, "address": "K sokolovně 37, 104 00", "web": "http:\/\/www.restaurantpivovarska.cz\/" }, "geometry": { "type": "Point", "coordinates": [ 14.6068, 50.028 ] } },
{ "type": "Feature", "properties": { "id": 29, "name": "Počernický pivovar", "brewer": "Marcel Jelínek", "est": 2014, "lat": 50.0879, "long": 14.5801, "address": "Národních hrdinů 3 ,190 12", "web": "http:\/\/www.pddp.cz\/pddp_pivovar\/" }, "geometry": { "type": "Point", "coordinates": [ 14.5801, 50.0879 ] } },
{ "type": "Feature", "properties": { "id": 30, "name": "Na Lochkově", "brewer": "Aleš Boubelík", "est": 2016, "lat": 50.0025, "long": 14.355, "address": "Ke Slivenci 36, 154 00", "web": "http:\/\/www.nalochkove.cz\/" }, "geometry": { "type": "Point", "coordinates": [ 14.355, 50.0025 ] } },
{ "type": "Feature", "properties": { "id": 31, "name": "Moucha", "brewer": "Daniela Tallová", "est": 2015, "lat": 50.0298, "long": 14.4094, "address": "Údolní 212\/1, 147 00", "web": "http:\/\/www.mouchapivo.cz\/" }, "geometry": { "type": "Point", "coordinates": [ 14.4094, 50.0298 ] } },
{ "type": "Feature", "properties": { "id": 32, "name": "Staropramen Smíchov", "brewer": "Zdeněk Lux", "est": 1869, "lat": 50.0685, "long": 14.4066, "address": "Nádražní 84, 150 54", "web": "http:\/\/www.staropramen.cz" }, "geometry": { "type": "Point", "coordinates": [ 14.4066, 50.0685 ] } }
]
}
