var pivovary = {
  "type": "FeatureCollection",
  "name": "pivovary",
  "crs": {
    "type": "name",
    "properties": {
      "name": "urn:ogc:def:crs:OGC:1.3:CRS84"
    }
  },
  "features": [
    {
      "type": "Feature",
      "properties": {
        "id": 1,
        "nazev": "Pivovar u medvídků",
        "sladek": "Ladislav Veselý",
        "vznik": 1466,
        "lat": 50.083,
        "long": 14.4187,
        "adresa": "Na Perštýně 7, 110 01"
      },
      "geometry": {
        "type": "Point",
        "coordinates": [
          14.4187,
          50.083
        ]
      }
    },
    {
      "type": "Feature",
      "properties": {
        "id": 2,
        "nazev": "Suchdolský Jeník",
        "sladek": "Ing. Ladislav Chládek,CSc.",
        "vznik": 2006,
        "lat": 50.13,
        "long": 14.3737,
        "adresa": "Kamýcká 129, 165 21"
      },
      "geometry": {
        "type": "Point",
        "coordinates": [
          14.3737,
          50.13
        ]
      }
    },
    {
      "type": "Feature",
      "properties": {
        "id": 3,
        "nazev": "Klášterní pivovar Strahov",
        "sladek": "Jan Martinka",
        "vznik": 2001,
        "lat": 50.0869,
        "long": 14.3886,
        "adresa": "Strahovské nádvoří 302/10, 118 00"
      },
      "geometry": {
        "type": "Point",
        "coordinates": [
          14.3886,
          50.0869
        ]
      }
    },
    {
      "type": "Feature",
      "properties": {
        "id": 4,
        "nazev": "Pivovar u Fleků",
        "sladek": "Michael Adamík",
        "vznik": 1499,
        "lat": 50.0789,
        "long": 14.4166,
        "adresa": "Křemencova 11, 110 01"
      },
      "geometry": {
        "type": "Point",
        "coordinates": [
          14.4166,
          50.0789
        ]
      }
    },
    {
      "type": "Feature",
      "properties": {
        "id": 5,
        "nazev": "Třebonický rukodělný pivovárek",
        "sladek": "David Staněk",
        "vznik": 2010,
        "lat": 50.0496,
        "long": 14.2864,
        "adresa": "K Řeporyjům 4,155 00"
      },
      "geometry": {
        "type": "Point",
        "coordinates": [
          14.2864,
          50.0496
        ]
      }
    },
    {
      "type": "Feature",
      "properties": {
        "id": 6,
        "nazev": "U Bulovky Richter Pub",
        "sladek": "František Richter",
        "vznik": 2004,
        "lat": 50.1153,
        "long": 14.4663,
        "adresa": "Bulovka 17/373,180 00"
      },
      "geometry": {
        "type": "Point",
        "coordinates": [
          14.4663,
          50.1153
        ]
      }
    },
    {
      "type": "Feature",
      "properties": {
        "id": 7,
        "nazev": "Jihoměstský pivovar",
        "sladek": "František Richter",
        "vznik": 2010,
        "lat": 50.0315,
        "long": 14.5197,
        "adresa": "Podjavorinské 1602/11, 149 000"
      },
      "geometry": {
        "type": "Point",
        "coordinates": [
          14.5197,
          50.0315
        ]
      }
    },
    {
      "type": "Feature",
      "properties": {
        "id": 8,
        "nazev": "Pivovarský dům",
        "sladek": "Václav Potměšil",
        "vznik": 1998,
        "lat": 50.0754,
        "long": 14.4237,
        "adresa": "Ječná/Lipová 15, 120 44"
      },
      "geometry": {
        "type": "Point",
        "coordinates": [
          14.4237,
          50.0754
        ]
      }
    },
    {
      "type": "Feature",
      "properties": {
        "id": 9,
        "nazev": "Novoměstský pivovar",
        "sladek": "Miroslav Vrána",
        "vznik": 1992,
        "lat": 50.0794,
        "long": 14.4232,
        "adresa": "Vodičkova 20, 110 00"
      },
      "geometry": {
        "type": "Point",
        "coordinates": [
          14.4232,
          50.0794
        ]
      }
    },
    {
      "type": "Feature",
      "properties": {
        "id": 10,
        "nazev": "Sousedský pivovar u Bansethů",
        "sladek": "Jan Kroužek",
        "vznik": 2007,
        "lat": 50.0628,
        "long": 14.4399,
        "adresa": "Táborská 49, 140 00"
      },
      "geometry": {
        "type": "Point",
        "coordinates": [
          14.4399,
          50.0628
        ]
      }
    },
    {
      "type": "Feature",
      "properties": {
        "id": 11,
        "nazev": "U dvou koček",
        "sladek": "Jaroslav Myška",
        "vznik": 2010,
        "lat": 50.0835,
        "long": 14.4205,
        "adresa": "Uhelný trh 415/10, 110 00"
      },
      "geometry": {
        "type": "Point",
        "coordinates": [
          14.4205,
          50.0835
        ]
      }
    },
    {
      "type": "Feature",
      "properties": {
        "id": 12,
        "nazev": "Staroměstský pivovar U tří růží",
        "sladek": "Robert Maňák",
        "vznik": 2012,
        "lat": 50.0856,
        "long": 14.4183,
        "adresa": "Husova 10, 110 00"
      },
      "geometry": {
        "type": "Point",
        "coordinates": [
          14.4183,
          50.0856
        ]
      }
    },
    {
      "type": "Feature",
      "properties": {
        "id": 13,
        "nazev": "Břevnovský klášterní pivovar Praha",
        "sladek": "Josef kára",
        "vznik": 993,
        "lat": 50.0851,
        "long": 14.3575,
        "adresa": "Markétská 28/1, 169 01"
      },
      "geometry": {
        "type": "Point",
        "coordinates": [
          14.3575,
          50.0851
        ]
      }
    },
    {
      "type": "Feature",
      "properties": {
        "id": 14,
        "nazev": "Victor",
        "sladek": "josef korbel",
        "vznik": 2012,
        "lat": 50.0868,
        "long": 14.4501,
        "adresa": "Husitská 72, 130 20"
      },
      "geometry": {
        "type": "Point",
        "coordinates": [
          14.4501,
          50.0868
        ]
      }
    },
    {
      "type": "Feature",
      "properties": {
        "id": 15,
        "nazev": "Marina Holešovice",
        "sladek": "Ondřej Malátek",
        "vznik": 2012,
        "lat": 50.1063,
        "long": 14.4564,
        "adresa": "Jankovcova 12, 180 00"
      },
      "geometry": {
        "type": "Point",
        "coordinates": [
          14.4564,
          50.1063
        ]
      }
    },
    {
      "type": "Feature",
      "properties": {
        "id": 16,
        "nazev": "Beznoska",
        "sladek": "Přemek Chmelař",
        "vznik": 2013,
        "lat": 50.1176,
        "long": 14.5071,
        "adresa": "Klíčovská, 805/11 190 00"
      },
      "geometry": {
        "type": "Point",
        "coordinates": [
          14.5071,
          50.1176
        ]
      }
    },
    {
      "type": "Feature",
      "properties": {
        "id": 17,
        "nazev": "Pivovar Hostivar",
        "sladek": "Jan Tržil",
        "vznik": 2011,
        "lat": 50.0465,
        "long": 14.5492,
        "adresa": "Hornoměcholupská 564, 109 00"
      },
      "geometry": {
        "type": "Point",
        "coordinates": [
          14.5492,
          50.0465
        ]
      }
    },
    {
      "type": "Feature",
      "properties": {
        "id": 18,
        "nazev": "Pražský most u Valšů",
        "sladek": "Jindřich Chejn",
        "vznik": 2008,
        "lat": 50.0836,
        "long": 14.4147,
        "adresa": "Betlémská 5, 110 00"
      },
      "geometry": {
        "type": "Point",
        "coordinates": [
          14.4147,
          50.0836
        ]
      }
    },
    {
      "type": "Feature",
      "properties": {
        "id": 19,
        "nazev": "Libocký pivovar",
        "sladek": "David Pátek",
        "vznik": 2013,
        "lat": 50.0925,
        "long": 14.324,
        "adresa": "Evropská 134/209, 161 00 "
      },
      "geometry": {
        "type": "Point",
        "coordinates": [
          14.324,
          50.0925
        ]
      }
    },
    {
      "type": "Feature",
      "properties": {
        "id": 20,
        "nazev": "Šedivák",
        "sladek": "Jiří Novák",
        "vznik": 2014,
        "lat": 50.1316,
        "long": 14.4244,
        "adresa": "Katovická 410/6, 181 00"
      },
      "geometry": {
        "type": "Point",
        "coordinates": [
          14.4244,
          50.1316
        ]
      }
    },
    {
      "type": "Feature",
      "properties": {
        "id": 21,
        "nazev": "Nad Kolčavkou",
        "sladek": "Ing. Martina Brožová",
        "vznik": 2014,
        "lat": 50.1083,
        "long": 14.4825,
        "adresa": "Nad Kolčavkou 907/8, 190 00"
      },
      "geometry": {
        "type": "Point",
        "coordinates": [
          14.4825,
          50.1083
        ]
      }
    },
    {
      "type": "Feature",
      "properties": {
        "id": 22,
        "nazev": "Vinohradský pivovar",
        "sladek": "František Richter",
        "vznik": 2014,
        "lat": 50.0753,
        "long": 14.4576,
        "adresa": "Korunní 2506/106, 101 00"
      },
      "geometry": {
        "type": "Point",
        "coordinates": [
          14.4576,
          50.0753
        ]
      }
    },
    {
      "type": "Feature",
      "properties": {
        "id": 23,
        "nazev": "Pivovar Lužiny",
        "sladek": "Michal Novotný",
        "vznik": 2014,
        "lat": 50.0441,
        "long": 14.3316,
        "adresa": "Archeologická 2256/1, 155 00"
      },
      "geometry": {
        "type": "Point",
        "coordinates": [
          14.3316,
          50.0441
        ]
      }
    },
    {
      "type": "Feature",
      "properties": {
        "id": 24,
        "nazev": "U Dobřenských",
        "sladek": "Adam Roudnický",
        "vznik": 2015,
        "lat": 50.0841,
        "long": 14.4156,
        "adresa": "U Dobřenských 3, 110 00"
      },
      "geometry": {
        "type": "Point",
        "coordinates": [
          14.4156,
          50.0841
        ]
      }
    },
    {
      "type": "Feature",
      "properties": {
        "id": 25,
        "nazev": "Pivovar Národní Třída",
        "sladek": "Jaroslav Košťák",
        "vznik": 2015,
        "lat": 50.0814,
        "long": 14.4156,
        "adresa": "Národní 8, 110 00"
      },
      "geometry": {
        "type": "Point",
        "coordinates": [
          14.4156,
          50.0814
        ]
      }
    },
    {
      "type": "Feature",
      "properties": {
        "id": 26,
        "nazev": "Pivovar Kunratice",
        "sladek": "Patrik Godovský",
        "vznik": 2014,
        "lat": 50.0077,
        "long": 14.4801,
        "adresa": "Vídeňská 405, 148 00"
      },
      "geometry": {
        "type": "Point",
        "coordinates": [
          14.4801,
          50.0077
        ]
      }
    },
    {
      "type": "Feature",
      "properties": {
        "id": 27,
        "nazev": "Nota Bene",
        "sladek": "Adam Roudnický",
        "vznik": 2016,
        "lat": 50.0764,
        "long": 14.4308,
        "adresa": "Mikovcova 4, 120 00"
      },
      "geometry": {
        "type": "Point",
        "coordinates": [
          14.4308,
          50.0764
        ]
      }
    },
    {
      "type": "Feature",
      "properties": {
        "id": 28,
        "nazev": "Pivovar Uhříněves",
        "sladek": "Rudolf Lach",
        "vznik": 2015,
        "lat": 50.028,
        "long": 14.6068,
        "adresa": "K sokolovně 37, 104 00"
      },
      "geometry": {
        "type": "Point",
        "coordinates": [
          14.6068,
          50.028
        ]
      }
    },
    {
      "type": "Feature",
      "properties": {
        "id": 29,
        "nazev": "Počernický pivovar",
        "sladek": "Marcel Jelínek",
        "vznik": 2014,
        "lat": 50.0879,
        "long": 14.5801,
        "adresa": "Národních hrdinů 3 ,190 12"
      },
      "geometry": {
        "type": "Point",
        "coordinates": [
          14.5801,
          50.0879
        ]
      }
    },
    {
      "type": "Feature",
      "properties": {
        "id": 30,
        "nazev": "Na Lochkově",
        "sladek": "Aleš Boubelík",
        "vznik": 2016,
        "lat": 50.0025,
        "long": 14.355,
        "adresa": "Ke Slivenci 36, 154 00"
      },
      "geometry": {
        "type": "Point",
        "coordinates": [
          14.355,
          50.0025
        ]
      }
    },
    {
      "type": "Feature",
      "properties": {
        "id": 31,
        "nazev": "Moucha",
        "sladek": "Daniela Tallová",
        "vznik": 2015,
        "lat": 50.0298,
        "long": 14.4094,
        "adresa": "Údolní 212/1, 147 00"
      },
      "geometry": {
        "type": "Point",
        "coordinates": [
          14.4094,
          50.0298
        ]
      }
    },
    {
      "type": "Feature",
      "properties": {
        "id": 32,
        "nazev": "Staropramen Smíchov",
        "sladek": "Zdeněk Lux",
        "vznik": 1869,
        "lat": 50.0685,
        "long": 14.4066,
        "adresa": "Nádražní 84, 150 54"
      },
      "geometry": {
        "type": "Point",
        "coordinates": [
          14.4066,
          50.0685
        ]
      }
    }
  ]
}
